SITE_ID,NAME,URL,WBID,AG,BIO,LAT,LON,SCORE
90,Southeastern Bat Maternity Caves Florida Forever BOT Project - Sneads Cave,http://www.dep.state.fl.us/lands/FFAnnual/Southeastern_Bat_Maternity_Caves.pdf,168481.4844,0,29.67685318,30.6732235,-84.88180542,0
3476,Southeastern Bat Maternity Caves Florida Forever BOT Project - Sweet Gum Cave,http://www.dep.state.fl.us/lands/FFAnnual/Southeastern_Bat_Maternity_Caves.pdf,0,0,216.8849335,28.70713043,-82.35947418,0
982,South Walton County Ecosystem Florida Forever BOT Project - Topsail Hill,http://www.dep.state.fl.us/lands/FFAnnual/South_Walton_County_Ecosystem.pdf,450534.9688,0,11.95071793,30.3667469,-86.27364349,0
1031,Hixtown Swamp Florida Forever BOT Project,http://www.dep.state.fl.us/lands/FFAnnual/Hixtown_Swamp.pdf,737291.6875,7092169,0.110171512,30.46247482,-83.52196503,0
3460,Southeastern Bat Maternity Caves Florida Forever BOT Project - Jennings Cave,http://www.dep.state.fl.us/lands/FFAnnual/Southeastern_Bat_Maternity_Caves.pdf,311137.7188,153.827301,6.428021908,29.15981102,-82.38140869,0
166,Dade County Archipelago Florida Forever BOT Project - Tropical Hammocks of the Redlands - Castellow Hammock Addition,http://www.dep.state.fl.us/lands/FFAnnual/Dade_County_Archipelago.pdf,0,1341.573486,317.8052368,25.56163216,-80.44511414,0
2957,Tiger Island/Little Tiger Island Florida Forever BOT Project,http://www.dep.state.fl.us/lands/FFAnnual/Tiger_Island_Little_Tiger_Island.pdf,5315844.5,0,1.128701091,30.69038391,-81.47858429,0
1006,South Walton County Ecosystem Florida Forever BOT Project - Point Washington,http://www.dep.state.fl.us/lands/FFAnnual/South_Walton_County_Ecosystem.pdf,8502561,57675.41016,5.940850735,30.37034416,-86.21779633,0
2469,Hosford Chapman's Rhododendron Protection Zone Florida Forever BOT Project,http://www.dep.state.fl.us/lands/FFAnnual/Hosford_Chapmans_Rhododendron_Protection_Zone.pdf,13185301,40657.33984,1.285242081,30.41302681,-84.68039703,0
67,Florida's First Magnitude Springs Florida Forever BOT Project - Weekiwachee Springs,http://www.dep.state.fl.us/lands/FFAnnual/Floridas_First_Magnitude_Springs.pdf,580095.875,320.9797058,23.92785072,28.5231514,-82.5734787,0
3759,Florida's First Magnitude Springs Florida Forever BOT Project - Cypress Spring,http://www.dep.state.fl.us/lands/FFAnnual/Floridas_First_Magnitude_Springs.pdf,0,0,51.10245514,30.65922928,-85.68461609,0
4751,Half Circle L Ranch Florida Forever BOT Project,http://www.dep.state.fl.us/lands/FFAnnual/Half_Circle_L_Ranch.pdf,41920212,21326186,0.088443175,26.46458435,-81.27175903,0
2593,Florida's First Magnitude Springs Florida Forever BOT Project - Fanning Springs,http://www.dep.state.fl.us/lands/FFAnnual/Floridas_First_Magnitude_Springs.pdf,0,0,4.071372509,29.58039856,-82.9347229,0
4759,San Felasco Conservation Corridor Florida Forever BOT Project,http://www.dep.state.fl.us/lands/FFAnnual/San_Felasco_Conservation_Corridor.pdf,62371.57031,42558.20703,0.658060074,29.79081726,-82.40773773,0
522,Florida's First Magnitude Springs Florida Forever BOT Project - Troy Spring,http://www.dep.state.fl.us/lands/FFAnnual/Floridas_First_Magnitude_Springs.pdf,0,0,11.19585419,30.00273705,-82.99090576,0
4333,Florida's First Magnitude Springs Florida Forever BOT Project - Gainer Springs,http://www.dep.state.fl.us/lands/FFAnnual/Floridas_First_Magnitude_Springs.pdf,0,513133.3438,4.727967739,30.41321564,-85.55452728,0
607,Florida's First Magnitude Springs Florida Forever BOT Project - Madison Blue Springs,http://www.dep.state.fl.us/lands/FFAnnual/Floridas_First_Magnitude_Springs.pdf,0,0,122.3246002,30.47554016,-83.24507904,0
3605,Lake Wales Ridge Ecosystem Florida Forever BOT Project - Warea Archipelago - Schofield Sandhill,http://www.dep.state.fl.us/lands/FFAnnual/Lake_Wales_Ridge_Ecosystem.pdf,0,5977.278809,12.51365089,28.45061874,-81.67605591,0
3265,Lake Wales Ridge Ecosystem Florida Forever BOT Project - Lake Mcleod,http://www.dep.state.fl.us/lands/FFAnnual/Lake_Wales_Ridge_Ecosystem.pdf,42633.69141,3659.306152,60.86098099,27.96312904,-81.74271393,0
121,Lake Wales Ridge Ecosystem Florida Forever BOT Project - Ridge Scrub,http://www.dep.state.fl.us/lands/FFAnnual/Lake_Wales_Ridge_Ecosystem.pdf,0,0,0,28.20855522,-81.55122375,0
4163,Lake Wales Ridge Ecosystem Florida Forever BOT Project - Lake June West,http://www.dep.state.fl.us/lands/FFAnnual/Lake_Wales_Ridge_Ecosystem.pdf,10547.18945,0,51.39498138,27.30030632,-81.41717529,0
571,Lake Wales Ridge Ecosystem Florida Forever BOT Project - Flamingo Villas,http://www.dep.state.fl.us/lands/FFAnnual/Lake_Wales_Ridge_Ecosystem.pdf,0,8958.855469,31.82175255,27.44027901,-81.38677216,0
3356,Lake Wales Ridge Ecosystem Florida Forever BOT Project - Gould Road,http://www.dep.state.fl.us/lands/FFAnnual/Lake_Wales_Ridge_Ecosystem.pdf,69925.83594,204538.5156,35.86286163,27.12998199,-81.32555389,0
322,Hall Ranch Florida Forever BOT Project,http://www.dep.state.fl.us/lands/FFAnnual/Hall_Ranch.pdf,1892478.625,3777291.5,0.26297766,26.93796539,-81.78578186,0
1797,Dade County Archipelago Florida Forever BOT Project - Camp Owaissa Bauer Pineland Addition,http://www.dep.state.fl.us/lands/FFAnnual/Dade_County_Archipelago.pdf,0,4359.39209,6561.010254,25.52523041,-80.46688843,0
3910,Dade County Archipelago Florida Forever BOT Project - Whispering Pines,http://www.dep.state.fl.us/lands/FFAnnual/Dade_County_Archipelago.pdf,90306.74219,0,77.51358795,25.59070587,-80.32556152,0
4765,Mill Creek Florida Forever BOT Project,http://www.dep.state.fl.us/lands/FFAnnual/Mill_Creek.pdf,0,7394352,0.221119389,29.41156006,-82.01205444,0
371,Brevard Coastal Scrub Ecosystem Florida Forever BOT Project - Scrub Jay Refugia - Dicerandra Scrub,http://www.dep.state.fl.us/lands/FFAnnual/Brevard_Coastal_Scrub_Ecosystem.pdf,18415.94141,0,54.30077744,28.55537605,-80.81173706,0
4654,Okeechobee Battlefield Florida Forever BOT Project,http://www.dep.state.fl.us/lands/FFAnnual/Okeechobee_Battlefield.pdf,361842.375,290642.25,5.52726841,27.20576286,-80.77459717,0
214,Florida's First Magnitude Springs Florida Forever BOT Project - River Sink Spring,http://www.dep.state.fl.us/lands/FFAnnual/Floridas_First_Magnitude_Springs.pdf,0,0,27.76605225,30.27604103,-84.342453,0
1019,Dickerson Bay/Bald Point Florida Forever BOT Project,http://www.dep.state.fl.us/lands/FFAnnual/Dickerson_Bay_Bald_Point.pdf,12711512,11729.21484,2.121548653,29.99303818,-84.375,0
4780,St. Joe Timberland Florida Forever BOT Project - Dickerson Bay/Bald Point,http://www.dep.state.fl.us/lands/FFAnnual/St_Joe_Timberland.pdf,2320735.5,0,2.136421919,29.93534851,-84.38677216,0
4781,St. Joe Timberland Florida Forever BOT Project - Florida's First Magnitude Springs - St. Marks Springs,http://www.dep.state.fl.us/lands/FFAnnual/St_Joe_Timberland.pdf,0,0,1.727716208,30.28806877,-84.15062714,0
4784,St. Joe Timberland Florida Forever BOT Project - Tates Hell/Carrabelle Tract,http://www.dep.state.fl.us/lands/FFAnnual/St_Joe_Timberland.pdf,1277606.875,0,1.95608604,29.95079803,-84.53448486,0
4777,St. Joe Timberland Florida Forever BOT Project - Sand Mountain,http://www.dep.state.fl.us/lands/FFAnnual/St_Joe_Timberland.pdf,0,882.5056763,5.279174805,30.51199341,-85.51029205,0
4504,Sand Mountain Florida Forever BOT Project,http://www.dep.state.fl.us/lands/FFAnnual/Sand_Mountain.pdf,0,2268028.5,1.307793379,30.53631401,-85.50611115,0
1442,Devil's Garden Florida Forever BOT Project,http://www.dep.state.fl.us/lands/FFAnnual/Devils_Garden.pdf,91525624,200625728,0.024246676,26.56660271,-81.14875031,0
4785,St. Joe Timberland Florida Forever BOT Project - Apalachicola River,http://www.dep.state.fl.us/lands/FFAnnual/St_Joe_Timberland.pdf,1535498.875,324.0296326,17.55381775,30.63382912,-84.86845398,0
555,Millstone Plantation Florida Forever BOT Project,http://www.dep.state.fl.us/lands/FFAnnual/Millstone_Plantation.pdf,224873.0313,90737.90625,2.964690685,30.56080437,-84.23480988,0
1638,Longleaf Pine Ecosystem Florida Forever BOT Project - Bell Ridge Sandhills,http://www.dep.state.fl.us/lands/FFAnnual/Longleaf_Pine_Ecosystem.pdf,0,422862.1563,0.146032318,29.7605896,-82.71240234,0
2379,Carr Farm/Price's Scrub Florida Forever BOT Project,http://www.dep.state.fl.us/lands/FFAnnual/Carr_Farm_Prices_Scrub.pdf,0,171244.2813,2.432135105,29.48722649,-82.29562378,0
4788,Gulf Hammock Florida Forever BOT Project,http://www.dep.state.fl.us/lands/FFAnnual/Gulf_Hammock.pdf,84921784,13312654,0.231745407,29.1121254,-82.69808197,0
4789,Bear Creek Forest Florida Forever BOT Project,http://www.dep.state.fl.us/lands/FFAnnual/Bear_Creek_Forest.pdf,88703456,571877.75,0.066438399,30.27598953,-85.35309601,0
2913,Etoniah/Cross Florida Greenway Florida Forever BOT Project - Cross Florida Greenway FPL Additions,http://www.dep.state.fl.us/lands/FFAnnual/Etoniah_Cross_Florida_Greenway.pdf,0,51269.35156,2.961198807,29.41836929,-81.91751862,0
3339,Southeastern Bat Maternity Caves Florida Forever BOT Project - Geromes Cave,http://www.dep.state.fl.us/lands/FFAnnual/Southeastern_Bat_Maternity_Caves.pdf,1057786.75,605.7980347,6.617591381,30.83761406,-85.25706482,0
3557,Middle Chipola River Florida Forever BOT Project,http://www.dep.state.fl.us/lands/FFAnnual/Middle_Chipola_River.pdf,34208920,3571583.25,2.615437031,30.67401886,-85.20796204,0
3191,Heather Island/Ocklawaha River Florida Forever BOT Project,http://www.dep.state.fl.us/lands/FFAnnual/Heather_Island_Ocklawaha_River.pdf,24962936,785434.25,0.324862242,29.18974113,-81.97668457,0
4794,Pine Island Slough Ecosystem Florida Forever BOT Project,http://www.dep.state.fl.us/lands/FFAnnual/Pine_Island_Slough_Ecosystem.pdf,0,148113888,0.035320114,27.68107605,-81.00527954,0
2935,Brevard Coastal Scrub Ecosystem Florida Forever BOT Project - Scrub Jay Refugia - Malabar Scrub Sanctuary,http://www.dep.state.fl.us/lands/FFAnnual/Brevard_Coastal_Scrub_Ecosystem.pdf,154.4095154,857.1904907,103.291832,28.00253105,-80.5765152,0
4772,Brevard Coastal Scrub Ecosystem Florida Forever BOT Project - St. Sebastian-St. Johns River Greenway,http://www.dep.state.fl.us/lands/FFAnnual/Brevard_Coastal_Scrub_Ecosystem.pdf,12929.4541,12217016,0.093836673,27.85004616,-80.66514587,0
4753,St. Joe Timberland Florida Forever BOT Project - St. Vincent Sound-to-Lake Wimico Ecosystem,http://www.dep.state.fl.us/lands/FFAnnual/St_Joe_Timberland.pdf,8126991.5,0,0.402574331,29.76625252,-85.20713806,0
4783,St. Joe Timberland Florida Forever BOT Project - St. Joseph Bay Buffer,http://www.dep.state.fl.us/lands/FFAnnual/St_Joe_Timberland.pdf,4666817.5,0,1.630995393,29.72587776,-85.26522827,0
111,Pinhook Swamp Florida Forever BOT Project - Pinhook Swamp,http://www.dep.state.fl.us/lands/FFAnnual/Pinhook_Swamp.pdf,36334908,364280.9688,0.048440132,30.48605728,-82.54637146,0
4822,Clay Ranch Florida Forever BOT Project,http://www.dep.state.fl.us/lands/FFAnnual/Clay_Ranch.pdf,0,3297579.5,0.301393062,29.71122932,-81.90074158,0
4115,Florida Keys Ecosystem Florida Forever BOT Project - Hammocks of the Lower Keys - Little Torch Key,http://www.dep.state.fl.us/lands/FFAnnual/Florida_Keys_Ecosystem.pdf,597398.8125,0,36.82632065,24.67433167,-81.39407349,0
425,Florida Keys Ecosystem Florida Forever BOT Project - Hammocks of the Lower Keys - Ramrod Key,http://www.dep.state.fl.us/lands/FFAnnual/Florida_Keys_Ecosystem.pdf,1210582.125,0,14.04283047,24.65619278,-81.41619873,0
505,Florida Keys Ecosystem Florida Forever BOT Project - Hammocks of the Lower Keys - Middle Torch Key,http://www.dep.state.fl.us/lands/FFAnnual/Florida_Keys_Ecosystem.pdf,1685184.125,0,30.26375198,24.68638992,-81.41159821,0
4774,Florida Keys Ecosystem Florida Forever BOT Project - Channel Key,http://www.dep.state.fl.us/lands/FFAnnual/Florida_Keys_Ecosystem.pdf,55840.47656,0,0,24.79314804,-80.91564941,0
2067,Florida Keys Ecosystem Florida Forever BOT Project - Hammocks of the Lower Keys - Big Torch Key,http://www.dep.state.fl.us/lands/FFAnnual/Florida_Keys_Ecosystem.pdf,542026.0625,0,62.72761536,24.70960426,-81.43650055,0
1481,Florida Keys Ecosystem Florida Forever BOT Project - Tropical Flyways - North Layton Hammock,http://www.dep.state.fl.us/lands/FFAnnual/Florida_Keys_Ecosystem.pdf,242655.75,0,111.2687454,24.83107376,-80.80840302,0
4807,Florida Keys Ecosystem Florida Forever BOT Project - Tavernier Key,http://www.dep.state.fl.us/lands/FFAnnual/Florida_Keys_Ecosystem.pdf,74454.92969,0,26.86188698,24.99660683,-80.50328064,0
2726,Florida Keys Ecosystem Florida Forever BOT Project - Hammocks of the Lower Keys - Little Knockemdown Key,http://www.dep.state.fl.us/lands/FFAnnual/Florida_Keys_Ecosystem.pdf,760492.9375,0,21.0389843,24.68375015,-81.46148682,0
398,Florida Keys Ecosystem Florida Forever BOT Project - Wilson Key,http://www.dep.state.fl.us/lands/FFAnnual/Florida_Keys_Ecosystem.pdf,65966.45313,0,15.1592207,24.94422531,-80.61177063,0
4808,Florida Keys Ecosystem Florida Forever BOT Project - Marathon/Crawl Key,http://www.dep.state.fl.us/lands/FFAnnual/Florida_Keys_Ecosystem.pdf,122186.2578,0,73.65803528,24.74580193,-80.97886658,0
2204,Florida Keys Ecosystem Florida Forever BOT Project - Hammocks of the Lower Keys - Cudjoe Key,http://www.dep.state.fl.us/lands/FFAnnual/Florida_Keys_Ecosystem.pdf,1106611.375,0,33.43540573,24.67152214,-81.49472809,0
2900,Florida Keys Ecosystem Florida Forever BOT Project - Tropical Flyways - Lower Matecumbe Hammock,http://www.dep.state.fl.us/lands/FFAnnual/Florida_Keys_Ecosystem.pdf,459102.875,0,47.91954041,24.86354256,-80.72375488,0
2527,Florida Keys Ecosystem Florida Forever BOT Project - Tropical Flyways - Largo Sound Hammock,http://www.dep.state.fl.us/lands/FFAnnual/Florida_Keys_Ecosystem.pdf,66646.51563,0,225.0680389,25.14425659,-80.39473724,0
4815,Florida Keys Ecosystem Florida Forever BOT Project - Tom's Harbor Keys,http://www.dep.state.fl.us/lands/FFAnnual/Florida_Keys_Ecosystem.pdf,74881.05469,0,0,24.76674271,-80.92861938,0
4490,Florida Keys Ecosystem Florida Forever BOT Project - Tropical Flyways - Tavernier Creek Hammocks,http://www.dep.state.fl.us/lands/FFAnnual/Florida_Keys_Ecosystem.pdf,106884.9531,0,177.7612152,25.00709915,-80.52007294,0
2749,Florida Keys Ecosystem Florida Forever BOT Project - Tropical Flyways - Key Largo Narrows Hammock,http://www.dep.state.fl.us/lands/FFAnnual/Florida_Keys_Ecosystem.pdf,107059.0938,0,186.8127136,25.06799316,-80.46955109,0
4825,Florida's First Magnitude Springs Florida Forever BOT Project - Hardee Spring,http://www.dep.state.fl.us/lands/FFAnnual/Floridas_First_Magnitude_Springs.pdf,50795.78125,0,2.352867603,30.54137421,-83.24502563,0
122,Northeast Florida Blueway Florida Forever BOT Project - Phase I,http://www.dep.state.fl.us/lands/FFAnnual/Northeast_Florida_Blueway.pdf,16498227,0,0.112785809,30.3134861,-81.42942047,0
2183,Northeast Florida Blueway Florida Forever BOT Project - Phase II,http://www.dep.state.fl.us/lands/FFAnnual/Northeast_Florida_Blueway.pdf,31714320,435191.75,0.764684796,29.89569283,-81.32480621,0
1767,Northeast Florida Timberlands and Watershed Reserve Florida Forever BOT Project,http://www.dep.state.fl.us/lands/FFAnnual/Northeast_Florida_Timberlands_and_Watershed_Reserve.pdf,25853064,32520012,0.137486756,30.29434395,-81.89524841,0
91,Ichetucknee Trace Florida Forever BOT Project,http://www.dep.state.fl.us/lands/FFAnnual/Ichetucknee_Trace.pdf,28478.38281,1836131.125,1.438662529,30.03178406,-82.72725677,0
4827,South Goethe Florida Forever BOT Project,http://www.dep.state.fl.us/lands/FFAnnual/South_Goethe.pdf,27882804,7405639.5,0.359034359,29.08973885,-82.53578186,0
4832,Adams Ranch Florida Forever BOT Project,http://www.dep.state.fl.us/lands/FFAnnual/Adams_Ranch.pdf,10794689,26839768,0.31135729,27.82370377,-81.08145905,0
272,Dade County Archipelago Florida Forever BOT Project - Tropical Hammocks of the Redlands - Southwest Hammock,http://www.dep.state.fl.us/lands/FFAnnual/Dade_County_Archipelago.pdf,53635.98047,3891.907227,93.2210083,25.40638542,-80.52281189,0
3155,Dade County Archipelago Florida Forever BOT Project - Tropical Hammocks of the Redlands - Silver Palm Hammock,http://www.dep.state.fl.us/lands/FFAnnual/Dade_County_Archipelago.pdf,0,0,0,25.55527878,-80.43112183,0
98,Dade County Archipelago Florida Forever BOT Project - Navy Wells #2,http://www.dep.state.fl.us/lands/FFAnnual/Dade_County_Archipelago.pdf,0,449.3243408,248.9966431,25.46687317,-80.51177979,0
3325,Dade County Archipelago Florida Forever BOT Project - Miami Rockridge Pinelands - Site 14,http://www.dep.state.fl.us/lands/FFAnnual/Dade_County_Archipelago.pdf,0,1434.252686,153.8036041,25.48607445,-80.52071381,0
197,Dade County Archipelago Florida Forever BOT Project - Miami Rockridge Pinelands - Site 10,http://www.dep.state.fl.us/lands/FFAnnual/Dade_County_Archipelago.pdf,0,0,108.3503799,25.51631927,-80.40325928,0
2958,Dade County Archipelago Florida Forever BOT Project - Miami Rockridge Pinelands - Site 9,http://www.dep.state.fl.us/lands/FFAnnual/Dade_County_Archipelago.pdf,0,0,186.6594543,25.52986145,-80.44018555,0
4327,Dade County Archipelago Florida Forever BOT Project - Miami Rockridge Pinelands - Site 15,http://www.dep.state.fl.us/lands/FFAnnual/Dade_County_Archipelago.pdf,8789.360352,0,341.0365295,25.44732285,-80.48750305,0
1447,Dade County Archipelago Florida Forever BOT Project - Tropical Hammocks of the Redlands - Maddens Hammock,http://www.dep.state.fl.us/lands/FFAnnual/Dade_County_Archipelago.pdf,236838.3281,0,0,25.91605949,-80.33909607,0
341,Florida Keys Ecosystem Florida Forever BOT Project - Tropical Flyways - Pennekamp North Hammock,http://www.dep.state.fl.us/lands/FFAnnual/Florida_Keys_Ecosystem.pdf,5998.40918,0,2333.952148,25.13272667,-80.40059662,0
787,Dade County Archipelago Florida Forever BOT Project - Castellow #28,http://www.dep.state.fl.us/lands/FFAnnual/Dade_County_Archipelago.pdf,0,0,1496.428467,25.55696297,-80.44480896,0
3199,Dade County Archipelago Florida Forever BOT Project - Round Hammock,http://www.dep.state.fl.us/lands/FFAnnual/Dade_County_Archipelago.pdf,142957.4219,100442.1406,48.96562576,25.39093971,-80.54781342,0
4809,Florida Keys Ecosystem Florida Forever BOT Project - Cotton Key,http://www.dep.state.fl.us/lands/FFAnnual/Florida_Keys_Ecosystem.pdf,126690.5156,0,15.78650188,24.96063423,-80.62442017,0
4812,Florida Keys Ecosystem Florida Forever BOT Project - Knockemdown Key,http://www.dep.state.fl.us/lands/FFAnnual/Florida_Keys_Ecosystem.pdf,118746.9375,0,58.94888687,24.70481873,-81.49133301,0
4761,Florida's First Magnitude Springs Florida Forever BOT Project - Lafayette Blue Springs,http://www.dep.state.fl.us/lands/FFAnnual/Floridas_First_Magnitude_Springs.pdf,4.013558865,243.3373718,3.807276011,30.13223457,-83.23499298,0
4793,Florida's First Magnitude Springs Florida Forever BOT Project - Church Sink,http://www.dep.state.fl.us/lands/FFAnnual/Floridas_First_Magnitude_Springs.pdf,19319.18555,0,103.5240326,30.38855743,-84.28539276,0
3296,Wekiva-Ocala Greenway Florida Forever BOT Project - Seminole Springs/Woods,http://www.dep.state.fl.us/lands/FFAnnual/Wekiva_Ocala_Greenway.pdf,0,5823896.5,0.691876352,28.84810448,-81.48886871,0
1788,Wekiva-Ocala Greenway Florida Forever BOT Project - Wekiva-Ocala Connector West,http://www.dep.state.fl.us/lands/FFAnnual/Wekiva_Ocala_Greenway.pdf,16061807,11144588,0.946972907,28.93719292,-81.49542999,0
2394,Wekiva-Ocala Greenway Florida Forever BOT Project - St. Johns River,http://www.dep.state.fl.us/lands/FFAnnual/Wekiva_Ocala_Greenway.pdf,0,1794.936035,28.08679771,28.90263939,-81.37056732,0
4122,Wekiva-Ocala Greenway Florida Forever BOT Project - B.M.K. Ranch,http://www.dep.state.fl.us/lands/FFAnnual/Wekiva_Ocala_Greenway.pdf,0,398104,9.538665771,28.78294373,-81.49047089,0
2253,Southeastern Bat Maternity Caves Florida Forever BOT Project - Grants Cave,http://www.dep.state.fl.us/lands/FFAnnual/Southeastern_Bat_Maternity_Caves.pdf,0,918.0117188,24.42691994,29.64870834,-82.50191498,0
4159,Catfish Creek Florida Forever BOT Project,http://www.dep.state.fl.us/lands/FFAnnual/Catfish_Creek.pdf,282094.1563,12223990,1.493184328,27.97684097,-81.45330048,0
2194,Florida's First Magnitude Springs Florida Forever BOT Project - Jackson Blue Springs,http://www.dep.state.fl.us/lands/FFAnnual/Floridas_First_Magnitude_Springs.pdf,112944.5234,2888685,2.040186882,30.79867554,-85.13175964,0
1325,Southeastern Bat Maternity Caves Florida Forever BOT Project - Catacombs Cave,http://www.dep.state.fl.us/lands/FFAnnual/Southeastern_Bat_Maternity_Caves.pdf,0,837.6766357,74.02927399,29.09086227,-82.13304901,0
1241,Three Chimneys Florida Forever BOT Project,http://www.dep.state.fl.us/lands/FFAnnual/Three_Chimneys.pdf,226929.2031,0,8.813321114,29.28132629,-81.07468414,0
4839,Ayavalla Plantation Florida Forever BOT Project,http://www.dep.state.fl.us/lands/FFAnnual/Ayavalla_Plantation.pdf,8332474.5,978197.9375,1.013112426,30.57291222,-84.32325745,0
3285,Indian River Lagoon Blueway Florida Forever BOT Project,http://www.dep.state.fl.us/lands/FFAnnual/Indian_River_Lagoon_Blueway.pdf,73497192,2346724.75,1.153119564,28.71138573,-80.82675934,0
4728,Florida Keys Ecosystem Florida Forever BOT Project - Tropical Flyways - Grassy Key Hammocks,http://www.dep.state.fl.us/lands/FFAnnual/Florida_Keys_Ecosystem.pdf,968909.9375,0,15.48131466,24.75906754,-80.95818329,0
1171,Florida Keys Ecosystem Florida Forever BOT Project - Tropical Flyways - Newport Hammocks,http://www.dep.state.fl.us/lands/FFAnnual/Florida_Keys_Ecosystem.pdf,706925.0625,0,33.94984818,25.10703278,-80.42575073,0
3999,Florida Keys Ecosystem Florida Forever BOT Project - Tropical Flyways - Dove Creek Hammocks,http://www.dep.state.fl.us/lands/FFAnnual/Florida_Keys_Ecosystem.pdf,820132.5,0,58.52712631,25.03147316,-80.50068665,0
4813,Florida Keys Ecosystem Florida Forever BOT Project - Marathon/Fat Deer Key,http://www.dep.state.fl.us/lands/FFAnnual/Florida_Keys_Ecosystem.pdf,83121.66406,0,96.24446106,24.7312355,-81.0022583,0
4845,Florida Keys Ecosystem Florida Forever BOT Project - Rodriguez Key,http://www.dep.state.fl.us/lands/FFAnnual/Florida_Keys_Ecosystem.pdf,88690.125,0,45.10084915,25.05235863,-80.45386505,0
4787,Florida Keys Ecosystem Florida Forever BOT Project - Saddlebunch Keys,http://www.dep.state.fl.us/lands/FFAnnual/Florida_Keys_Ecosystem.pdf,2037471.25,0,5.889653683,24.59752655,-81.6374588,0
4811,Florida Keys Ecosystem Florida Forever BOT Project - Great White Heron Keys,http://www.dep.state.fl.us/lands/FFAnnual/Florida_Keys_Ecosystem.pdf,393944.2188,0,15.23058319,24.69359779,-81.64852905,0
4816,Florida Keys Ecosystem Florida Forever BOT Project - Islamorada/Upper Matecumbe Keys,http://www.dep.state.fl.us/lands/FFAnnual/Florida_Keys_Ecosystem.pdf,217993.9375,0,128.4439392,24.91726112,-80.63562012,0
4786,Florida Keys Ecosystem Florida Forever BOT Project - Budd Key,http://www.dep.state.fl.us/lands/FFAnnual/Florida_Keys_Ecosystem.pdf,12113.68457,0,165.1025238,24.72700882,-81.51882935,0
2008,Florida's First Magnitude Springs Florida Forever BOT Project - St. Marks Springs,http://www.dep.state.fl.us/lands/FFAnnual/Floridas_First_Magnitude_Springs.pdf,0,0,9.947094917,30.2831707,-84.14899445,0
4842,Bear Hammock Florida Forever BOT Project,http://www.dep.state.fl.us/lands/FFAnnual/Bear_Hammock.pdf,6628197,130348.4922,0.316594034,29.07487679,-82.51316833,0
1190,Southeastern Bat Maternity Caves Florida Forever BOT Project - Sumter County Cave,http://www.dep.state.fl.us/lands/FFAnnual/Southeastern_Bat_Maternity_Caves.pdf,706139.8125,55707.49219,2.823845863,28.67919922,-82.25559998,0
3998,Old Town Creek Watershed Florida Forever BOT Project,http://www.dep.state.fl.us/lands/FFAnnual/Old_Town_Creek_Watershed.pdf,0,10547336,0.135342881,27.62987137,-81.59170532,0
4792,Lake Wales Ridge Ecosystem Florida Forever BOT Project - Lake Josephine,http://www.dep.state.fl.us/lands/FFAnnual/Lake_Wales_Ridge_Ecosystem.pdf,2129799,265477.375,2.347639322,27.40482712,-81.44055176,0
4798,Little River Conservation Area Florida Forever BOT Project,http://www.dep.state.fl.us/lands/FFAnnual/Little_River_Conservation_Area.pdf,4790746,183665.2656,1.303759694,30.57215881,-84.50249481,0
3654,Battle of Wahoo Swamp Florida Forever BOT Project,http://www.dep.state.fl.us/lands/FFAnnual/Battle_of_Wahoo_Swamp.pdf,0,29736.64648,3.184933662,28.69023132,-82.22042847,0
692,Baldwin Bay/St. Marys River Florida Forever BOT Project,http://www.dep.state.fl.us/lands/FFAnnual/Baldwin_Bay_St_Marys_River.pdf,756420.25,867167.4375,0.088300787,30.35923386,-81.98949432,0
4770,Upper Shoal River Florida Forever BOT Project,http://www.dep.state.fl.us/lands/FFAnnual/Upper_Shoal_River.pdf,0,61997.375,0.102664188,30.84700775,-86.32019806,0
3337,Lochloosa Wildlife Florida Forever BOT Project,http://www.dep.state.fl.us/lands/FFAnnual/Lochloosa_Wildlife.pdf,19324252,1759715,0.999772429,29.52667618,-82.17350769,0
4764,San Pedro Bay Florida Forever BOT Project,http://www.dep.state.fl.us/lands/FFAnnual/San_Pedro_Bay.pdf,22726298,20359.61328,0.010982751,30.28609467,-83.47380066,0
4849,Triple Diamond Florida Forever BOT Project,http://www.dep.state.fl.us/lands/FFAnnual/Triple_Diamond.pdf,25486934,6706661,0.030901944,27.5101223,-81.08141327,0
1063,Panther Glades Florida Forever BOT Project,http://www.dep.state.fl.us/lands/FFAnnual/Panther_Glades.pdf,2434028.25,93458592,0.081565723,26.36544228,-81.12042236,0
2923,Pineland Site Complex Florida Forever BOT Project,http://www.dep.state.fl.us/lands/FFAnnual/Pineland_Site_Complex.pdf,603394.8125,35251.99219,0,26.65600777,-82.14754486,0
4851,Maytown Flatwoods Florida Forever BOT Project,http://www.dep.state.fl.us/lands/FFAnnual/Maytown_Flatwoods.pdf,466620.25,18962.1875,0.244583532,28.72316933,-80.93721008,0
1650,St. Joe Timberland Florida Forever BOT Project - Lake Wimico,http://www.dep.state.fl.us/lands/FFAnnual/St_Joe_Timberland.pdf,0,0,0.039285984,29.84848022,-85.13316345,0
4778,St. Joe Timberland Florida Forever BOT Project - Wakulla Springs Protection Zone,http://www.dep.state.fl.us/lands/FFAnnual/St_Joe_Timberland.pdf,0,18114.29492,1.562438726,30.18779945,-84.27816772,0
4810,Florida Keys Ecosystem Florida Forever BOT Project - Windley Key,http://www.dep.state.fl.us/lands/FFAnnual/Florida_Keys_Ecosystem.pdf,71623.40625,0,97.7334137,24.94631577,-80.60157013,0
4804,Florida Keys Ecosystem Florida Forever BOT Project - Boca Chica Key,http://www.dep.state.fl.us/lands/FFAnnual/Florida_Keys_Ecosystem.pdf,113071.3672,0,106.1276627,24.59181404,-81.6709137,0
346,Florida Keys Ecosystem Florida Forever BOT Project - Hammocks of the Lower Keys - Sugarloaf Key,http://www.dep.state.fl.us/lands/FFAnnual/Florida_Keys_Ecosystem.pdf,2608460.25,0,17.63492393,24.64389801,-81.53884888,0
4797,Ochlockonee River Conservation Area Florida Forever BOT Project,http://www.dep.state.fl.us/lands/FFAnnual/Ochlockonee_River_Conservation_Area.pdf,0,128416.0078,1.877489567,30.65200424,-84.29184723,0
3555,Atlantic Ridge Ecosystem Florida Forever BOT Project,http://www.dep.state.fl.us/lands/FFAnnual/Atlantic_Ridge_Ecosystem.pdf,810605.75,18928318,0.512172759,27.05468941,-80.1913681,0
1905,Charlotte Harbor Estuary Florida Forever BOT Project - Myakka Estuary,http://www.dep.state.fl.us/lands/FFAnnual/Charlotte_Harbor_Estuary.pdf,8667919,6457.392578,1.524275661,27.01036644,-82.27977753,0
3067,Charlotte Harbor Estuary Florida Forever BOT Project - Cape Haze/Charlotte Harbor - Charlotte Harbor,http://www.dep.state.fl.us/lands/FFAnnual/Charlotte_Harbor_Estuary.pdf,6959845,220988.1094,1.759718895,26.83470345,-82.12089539,0
3682,Charlotte Harbor Estuary Florida Forever BOT Project - Cape Haze/Charlotte Harbor - Cape Haze/Charlotte Harbor,http://www.dep.state.fl.us/lands/FFAnnual/Charlotte_Harbor_Estuary.pdf,525305.625,3051.050537,2.238223076,26.858778,-82.23959351,0
4665,Pal-Mar Florida Forever BOT Project,http://www.dep.state.fl.us/lands/FFAnnual/Pal_Mar.pdf,58319.03906,5331301,0.904168606,26.98226929,-80.34792328,0
4157,Estero Bay Florida Forever BOT Project,http://www.dep.state.fl.us/lands/FFAnnual/Estero_Bay.pdf,4924177,0,0.969465196,26.42187119,-81.87795258,0
2086,Brevard Coastal Scrub Ecosystem Florida Forever BOT Project - Fox/South Lakes Complex,http://www.dep.state.fl.us/lands/FFAnnual/Brevard_Coastal_Scrub_Ecosystem.pdf,5772461,9903.370117,1.006425261,28.59835815,-80.88005829,0
4840,Brevard Coastal Scrub Ecosystem Florida Forever BOT Project - Falcon Woods,http://www.dep.state.fl.us/lands/FFAnnual/Brevard_Coastal_Scrub_Ecosystem.pdf,0,0,7.984928131,28.61969757,-80.85491943,0
3258,Brevard Coastal Scrub Ecosystem Florida Forever BOT Project - Scrub Jay Refugia - Tico,http://www.dep.state.fl.us/lands/FFAnnual/Brevard_Coastal_Scrub_Ecosystem.pdf,6187057,5062.896484,2.173897028,28.50316238,-80.81429291,0
4275,Brevard Coastal Scrub Ecosystem Florida Forever BOT Project - Ten Mile Ridge,http://www.dep.state.fl.us/lands/FFAnnual/Brevard_Coastal_Scrub_Ecosystem.pdf,1230466.625,26420.11133,1.62539959,27.94522858,-80.61488342,0
3306,Brevard Coastal Scrub Ecosystem Florida Forever BOT Project - Micco Expansion,http://www.dep.state.fl.us/lands/FFAnnual/Brevard_Coastal_Scrub_Ecosystem.pdf,395956.7813,44651.11328,4.018036366,27.90934181,-80.60675049,0
3102,Brevard Coastal Scrub Ecosystem Florida Forever BOT Project - Scrub Jay Refugia - Valkaria,http://www.dep.state.fl.us/lands/FFAnnual/Brevard_Coastal_Scrub_Ecosystem.pdf,1100175.875,3916.768311,6.099389553,27.94210625,-80.55374146,0
2093,Brevard Coastal Scrub Ecosystem Florida Forever BOT Project - Scrub Jay Refugia - Rockledge,http://www.dep.state.fl.us/lands/FFAnnual/Brevard_Coastal_Scrub_Ecosystem.pdf,1668847.125,0,5.18026638,28.27243042,-80.70431519,0
2085,Brevard Coastal Scrub Ecosystem Florida Forever BOT Project - Titusville Wellfield,http://www.dep.state.fl.us/lands/FFAnnual/Brevard_Coastal_Scrub_Ecosystem.pdf,3493512.25,0,3.721183538,28.54224586,-80.80362701,0
1498,Dade County Archipelago Florida Forever BOT Project - Goulds Pineland Addition,http://www.dep.state.fl.us/lands/FFAnnual/Dade_County_Archipelago.pdf,0,0,200.1089172,25.55545807,-80.38397217,0
969,Dade County Archipelago Florida Forever BOT Project - Miami Rockridge Pinelands - Site 6,http://www.dep.state.fl.us/lands/FFAnnual/Dade_County_Archipelago.pdf,0,0,559.8413086,25.55635452,-80.3863678,0
977,Dade County Archipelago Florida Forever BOT Project - Wilkins Pierson Pineland,http://www.dep.state.fl.us/lands/FFAnnual/Dade_County_Archipelago.pdf,0,569.8096313,299.8580933,25.59597206,-80.45823669,0
1197,Dade County Archipelago Florida Forever BOT Project - Navy Wells #39,http://www.dep.state.fl.us/lands/FFAnnual/Dade_County_Archipelago.pdf,16061.36035,312.2151184,933.918396,25.4366684,-80.53072357,0
2520,Dade County Archipelago Florida Forever BOT Project - Navy Wells #23,http://www.dep.state.fl.us/lands/FFAnnual/Dade_County_Archipelago.pdf,28944.9375,0,276.3868408,25.43771744,-80.48427582,0
777,Dade County Archipelago Florida Forever BOT Project - Miami Rockridge Pinelands - Site 13,http://www.dep.state.fl.us/lands/FFAnnual/Dade_County_Archipelago.pdf,0,354.3486023,1147.066528,25.50113487,-80.50050354,0
4773,Brevard Coastal Scrub Ecosystem Florida Forever BOT Project - Indian Mound Station,http://www.dep.state.fl.us/lands/FFAnnual/Brevard_Coastal_Scrub_Ecosystem.pdf,0,0,18.61515427,28.65359116,-80.85894012,0
4418,Lake Wales Ridge Ecosystem Florida Forever BOT Project - McJunkin Ranch,http://www.dep.state.fl.us/lands/FFAnnual/Lake_Wales_Ridge_Ecosystem.pdf,237351.4375,243216.8594,198.5411224,27.20444489,-81.37236023,0
370,Brevard Coastal Scrub Ecosystem Florida Forever BOT Project - Scrub Jay Refugia - South Babcock,http://www.dep.state.fl.us/lands/FFAnnual/Brevard_Coastal_Scrub_Ecosystem.pdf,1297120.125,6828.307129,3.854693174,27.93115997,-80.6135025,0
731,Lake Wales Ridge Ecosystem Florida Forever BOT Project - Horse Creek Scrub,http://www.dep.state.fl.us/lands/FFAnnual/Lake_Wales_Ridge_Ecosystem.pdf,0,877524.625,4.667604446,28.16273308,-81.56156921,0
3697,Brevard Coastal Scrub Ecosystem Florida Forever BOT Project - Grissom Parkway,http://www.dep.state.fl.us/lands/FFAnnual/Brevard_Coastal_Scrub_Ecosystem.pdf,0,33331.45703,0.723376215,28.44785881,-80.80077362,0
4855,Peace River Refuge Florida Forever BOT Project,http://www.dep.state.fl.us/lands/FFAnnual/Peace_River_Refuge.pdf,15054606,335443.125,0.12745434,27.18069649,-81.89844513,0
4857,Suwannee County Preservation Florida Forever BOT Project,http://www.dep.state.fl.us/lands/FFAnnual/Suwannee_County_Preservation.pdf,2422310.25,260797.125,0.985281825,30.29395294,-82.91151428,0
4769,Camp Blanding to Raiford Greenway Florida Forever BOT Project,http://www.dep.state.fl.us/lands/FFAnnual/Camp_Blanding_Raiford_Greenway.pdf,0,137225.2813,0.053320717,30.16172981,-82.08589172,0
3671,Brevard Coastal Scrub Ecosystem Florida Forever BOT Project - Scrub Jay Refugia - Micco,http://www.dep.state.fl.us/lands/FFAnnual/Brevard_Coastal_Scrub_Ecosystem.pdf,0,27468.37695,30.88962936,27.87444496,-80.60826111,0
4763,Lake Wales Ridge Ecosystem Florida Forever BOT Project - Henscratch Ranch,http://www.dep.state.fl.us/lands/FFAnnual/Lake_Wales_Ridge_Ecosystem.pdf,2143430.75,351122.6875,0.466541767,27.31597328,-81.47438049,0
4859,Raiford to Osceola Greenway Florida Forever BOT Project,http://www.dep.state.fl.us/lands/FFAnnual/Raiford_Osceola_Greenway.pdf,66336316,18332.01758,0.043815754,30.14209366,-82.32094574,0
4064,Brevard Coastal Scrub Ecosystem Florida Forever BOT Project - Scrub Jay Refugia - Jordan Boulevard,http://www.dep.state.fl.us/lands/FFAnnual/Brevard_Coastal_Scrub_Ecosystem.pdf,334180.5,0,23.93915939,27.9841156,-80.55936432,0
3877,Florida's First Magnitude Springs Florida Forever BOT Project - Falmouth Spring,http://www.dep.state.fl.us/lands/FFAnnual/Floridas_First_Magnitude_Springs.pdf,0,469.8504944,0,30.3586483,-83.13897705,0
1685,Pierce Mound Complex Florida Forever BOT Project,http://www.dep.state.fl.us/lands/FFAnnual/Pierce_Mound_Complex.pdf,2511874.5,0,4.777308941,29.73834229,-85.005867,0
17,Caloosahatchee Ecoscape Florida Forever BOT Project,http://www.dep.state.fl.us/lands/FFAnnual/Caloosahatchee_Ecoscape.pdf,2035499.125,28208562,0.138380796,26.7304554,-81.35058594,0
2468,Lower Perdido River Buffer Florida Forever BOT Project,http://www.dep.state.fl.us/lands/FFAnnual/Lower_Perdido_River_Buffer.pdf,2841119.25,16978.65625,2.37906003,30.49762535,-87.38080597,0
506,Pinhook Swamp Florida Forever BOT Project - Suwannee Buffers - Deep Creek Drainage Tract,http://www.dep.state.fl.us/lands/FFAnnual/Pinhook_Swamp.pdf,10512162,1098232.625,0.27895686,30.3906765,-82.63443756,0
2230,Ranch Reserve Florida Forever BOT Project,http://www.dep.state.fl.us/lands/FFAnnual/Ranch_Reserve.pdf,13422533,39943172,0.078475319,27.88354874,-80.92127991,0
849,Brevard Coastal Scrub Ecosystem Florida Forever BOT Project - Malabar Expansion and Valkaria/Micco Expansion,http://www.dep.state.fl.us/lands/FFAnnual/Brevard_Coastal_Scrub_Ecosystem.pdf,13430410,7085244,0.815617979,27.91430092,-80.56854248,0
4760,Upper St. Marks River Corridor Florida Forever BOT Project,http://www.dep.state.fl.us/lands/FFAnnual/Upper_St_Marks_River_Corridor.pdf,2564020.25,25384.19336,0.167195633,30.3350811,-84.09979248,0
1106,Perdido Pitcher Plant Prairie Florida Forever BOT Project,http://www.dep.state.fl.us/lands/FFAnnual/Perdido_Pitcher_Plant_Prairie.pdf,9584926,64241.51953,1.123378277,30.34836006,-87.38526917,0
4790,Lafayette Forest Florida Forever BOT Project,http://www.dep.state.fl.us/lands/FFAnnual/Lafayette_Forest.pdf,0,3881357,0.313069642,29.91380501,-82.98622894,0
4224,Dade County Archipelago Florida Forever BOT Project - Tropical Hammocks of the Redlands - Holiday Hammock,http://www.dep.state.fl.us/lands/FFAnnual/Dade_County_Archipelago.pdf,83993.92188,8939.240234,35.71686935,25.39362335,-80.52669525,0
3911,Longleaf Pine Ecosystem Florida Forever BOT Project - Deland Ridge Sandhill,http://www.dep.state.fl.us/lands/FFAnnual/Longleaf_Pine_Ecosystem.pdf,0,3183951.5,0.849004626,29.1690979,-81.32504272,0
2246,Longleaf Pine Ecosystem Florida Forever BOT Project - Ross Prairie Sandhill,http://www.dep.state.fl.us/lands/FFAnnual/Longleaf_Pine_Ecosystem.pdf,6221758.5,424250.6875,2.053351641,29.09703636,-82.30066681,0
4345,Belle Meade Florida Forever BOT Project,http://www.dep.state.fl.us/lands/FFAnnual/Belle_Meade.pdf,0,8066089,0.783722281,26.08476448,-81.6227417,0
3523,Archie Carr Sea Turtle Refuge Florida Forever BOT Project,http://www.dep.state.fl.us/lands/FFAnnual/Archie_Carr_Sea_Turtle_Refuge.pdf,1468027.625,0,34.74048996,27.88249207,-80.46177673,0
1118,Save Our Everglades Florida Forever BOT Project,http://www.dep.state.fl.us/lands/FFAnnual/Save_Our_Everglades.pdf,712516.375,9.302484512,19.78038406,26.16461754,-81.39909363,0
3162,Terra Ceia Florida Forever BOT Project,http://www.dep.state.fl.us/lands/FFAnnual/Terra_Ceia.pdf,4920717,975005.6875,1.219874978,27.5802784,-82.58438873,0
287,Watermelon Pond Florida Forever BOT Project,http://www.dep.state.fl.us/lands/FFAnnual/Watermelon_Pond.pdf,0,1598280.125,1.424540639,29.51307869,-82.58163452,0
4503,Florida Keys Ecosystem Florida Forever BOT Project - Tropical Flyways - Point Charles Hammock,http://www.dep.state.fl.us/lands/FFAnnual/Florida_Keys_Ecosystem.pdf,260849.4531,0,57.50443268,25.08414078,-80.44703674,0
1419,Osceola Pine Savannas Florida Forever BOT Project,http://www.dep.state.fl.us/lands/FFAnnual/Osceola_Pine_Savannas.pdf,1130787.375,72686896,0.223885804,27.98433113,-80.98786163,0
4459,Lake Hatchineha Watershed Florida Forever BOT Project,http://www.dep.state.fl.us/lands/FFAnnual/Lake_Hatchineha_Watershed.pdf,13604409,10860815,0.273890942,28.11538124,-81.47867584,0
2596,Florida Keys Ecosystem Florida Forever BOT Project - Hammocks of the Lower Keys - Summerland Key,http://www.dep.state.fl.us/lands/FFAnnual/Florida_Keys_Ecosystem.pdf,979117.5,0,28.59717941,24.66876602,-81.44822693,0
4860,Horse Creek Ranch Florida Forever BOT Project,http://www.dep.state.fl.us/lands/FFAnnual/Horse_Creek_Ranch.pdf,0,28661424,0.151449487,27.32962608,-81.93502808,0
4814,Florida Keys Ecosystem Florida Forever BOT Project - Marathon/Vaca Key,http://www.dep.state.fl.us/lands/FFAnnual/Florida_Keys_Ecosystem.pdf,556037.5,0,39.56567764,24.71411324,-81.07195282,0
4069,Florida Keys Ecosystem Florida Forever BOT Project - Boot Key,http://www.dep.state.fl.us/lands/FFAnnual/Florida_Keys_Ecosystem.pdf,4210786.5,0,7.124559402,24.69415855,-81.10309601,0
1698,Twelvemile Slough Florida Forever BOT Project,http://www.dep.state.fl.us/lands/FFAnnual/Twelvemile_Slough.pdf,1758531.375,18652984,0.332678556,26.59802818,-81.40517426,0
1798,Lake Wales Ridge Ecosystem Florida Forever BOT Project - Hesperides,http://www.dep.state.fl.us/lands/FFAnnual/Lake_Wales_Ridge_Ecosystem.pdf,0,985791.9375,7.054109097,27.89080811,-81.44200134,0
823,Lake Wales Ridge Ecosystem Florida Forever BOT Project - Avon Park Lakes,http://www.dep.state.fl.us/lands/FFAnnual/Lake_Wales_Ridge_Ecosystem.pdf,0,0,78.34026337,27.61517715,-81.55166626,0
824,Lake Wales Ridge Ecosystem Florida Forever BOT Project - Henscratch Road/Jack Creek,http://www.dep.state.fl.us/lands/FFAnnual/Lake_Wales_Ridge_Ecosystem.pdf,1461399,17391.03125,24.91856956,27.36895943,-81.43254089,0
446,Lake Wales Ridge Ecosystem Florida Forever BOT Project - Highlands Ridge,http://www.dep.state.fl.us/lands/FFAnnual/Lake_Wales_Ridge_Ecosystem.pdf,11419678,3137077.25,5.615329742,27.329916,-81.45487976,0
2305,Lake Wales Ridge Ecosystem Florida Forever BOT Project - Warea Archipelago - Castle Hill,http://www.dep.state.fl.us/lands/FFAnnual/Lake_Wales_Ridge_Ecosystem.pdf,0,1164.770142,36.28533554,28.54449654,-81.6989212,0
191,Lake Wales Ridge Ecosystem Florida Forever BOT Project - Holmes Avenue,http://www.dep.state.fl.us/lands/FFAnnual/Lake_Wales_Ridge_Ecosystem.pdf,1956916.5,1311.283081,21.1805172,27.28470421,-81.32416534,0
4826,Lake Wales Ridge Ecosystem Florida Forever BOT Project - Crooked Lake West,http://www.dep.state.fl.us/lands/FFAnnual/Lake_Wales_Ridge_Ecosystem.pdf,4687514.5,6199738,1.87695539,27.78337479,-81.62102509,0
149,Lake Wales Ridge Ecosystem Florida Forever BOT Project - Lake Apthorpe,http://www.dep.state.fl.us/lands/FFAnnual/Lake_Wales_Ridge_Ecosystem.pdf,12326.13965,322683,12.07569027,27.34634781,-81.34144592,0
549,Lake Wales Ridge Ecosystem Florida Forever BOT Project - Warea Archipelago - Lake Davenport,http://www.dep.state.fl.us/lands/FFAnnual/Lake_Wales_Ridge_Ecosystem.pdf,385154.4063,0,14.60294056,28.33001518,-81.65289307,0
993,Lake Wales Ridge Ecosystem Florida Forever BOT Project - Sunray/Hickory Lake South,http://www.dep.state.fl.us/lands/FFAnnual/Lake_Wales_Ridge_Ecosystem.pdf,1585.652466,160730.4219,33.54823303,27.69901848,-81.55389404,0
2420,Lake Wales Ridge Ecosystem Florida Forever BOT Project - Warea Archipelago - Sugarloaf Mountain,http://www.dep.state.fl.us/lands/FFAnnual/Lake_Wales_Ridge_Ecosystem.pdf,0,1374.711792,52.9843483,28.66510391,-81.72879791,0
4304,Lake Wales Ridge Ecosystem Florida Forever BOT Project - Mountain Lake Cutoff,http://www.dep.state.fl.us/lands/FFAnnual/Lake_Wales_Ridge_Ecosystem.pdf,2040.621216,1358.532349,47.80624008,27.92017555,-81.60527802,0
2352,Lake Wales Ridge Ecosystem Florida Forever BOT Project - Lake Walk-in-the-Water,http://www.dep.state.fl.us/lands/FFAnnual/Lake_Wales_Ridge_Ecosystem.pdf,74701.79688,363007.8438,15.45727444,27.7834053,-81.4493103,0
726,Lake Wales Ridge Ecosystem Florida Forever BOT Project - Trout Lake,http://www.dep.state.fl.us/lands/FFAnnual/Lake_Wales_Ridge_Ecosystem.pdf,0,695.2373047,69.97379303,27.65221024,-81.50745392,0
707,Lake Wales Ridge Ecosystem Florida Forever BOT Project - Sun N Lakes South,http://www.dep.state.fl.us/lands/FFAnnual/Lake_Wales_Ridge_Ecosystem.pdf,1389261.25,299.6625977,10.18739605,27.2248745,-81.31520081,0
1653,Lake Wales Ridge Ecosystem Florida Forever BOT Project - Silver Lake,http://www.dep.state.fl.us/lands/FFAnnual/Lake_Wales_Ridge_Ecosystem.pdf,0,11043.39355,12.29300213,27.5663929,-81.53730774,0
4767,Flagler County Blueway Florida Forever BOT Project,http://www.dep.state.fl.us/lands/FFAnnual/Flagler_County_Blueway.pdf,15503048,552271.8125,0.975392163,29.49975014,-81.16285706,0
4833,Rainbow River Corridor Florida Forever BOT Project,http://www.dep.state.fl.us/lands/FFAnnual/Rainbow_River_Corridor.pdf,4382975.5,1063155.75,4.76529789,29.08502769,-82.43540955,0
4838,Crossbar/Al Bar Ranch Florida Forever BOT Project,http://www.dep.state.fl.us/lands/FFAnnual/Crossbar_Al_Bar_Ranch.pdf,0,18063.45117,77.08188629,28.38438988,-82.46258545,0
4864,Green Swamp Florida Forever BOT Project - Peace River Headwaters,http://www.dep.state.fl.us/lands/FFAnnual/Green_Swamp.pdf,60290552,32545116,0.010407569,28.21104622,-81.82759857,0
4865,Green Swamp Florida Forever BOT Project - Pine Island Recharge Area,http://www.dep.state.fl.us/lands/FFAnnual/Green_Swamp.pdf,40227700,42052112,0.109828271,28.4576416,-81.80376434,0
4866,Green Swamp Florida Forever BOT Project - Hilochee Corridor,http://www.dep.state.fl.us/lands/FFAnnual/Green_Swamp.pdf,179030416,64653784,0.099309586,28.26697159,-81.73066711,0
4867,Green Swamp Florida Forever BOT Project - Withlacoochee River Headwaters,http://www.dep.state.fl.us/lands/FFAnnual/Green_Swamp.pdf,77091136,70636920,0.156473041,28.40045547,-81.89164734,0
4868,West Bay Preservation Area Florida Forever BOT Project,http://www.dep.state.fl.us/lands/FFAnnual/West_Bay_Preservation_Area.pdf,9980979,0,0.164350837,30.29766083,-85.74649811,0
1239,Etoniah/Cross Florida Greenway Florida Forever BOT Project - Caravelle Ranch,http://www.dep.state.fl.us/lands/FFAnnual/Etoniah_Cross_Florida_Greenway.pdf,1115985.625,1908597,0.349893183,29.57048798,-81.82692719,0
619,Etoniah/Cross Florida Greenway Florida Forever BOT Project - Cross Florida Greenway Phase II,http://www.dep.state.fl.us/lands/FFAnnual/Etoniah_Cross_Florida_Greenway.pdf,1334512.75,354093.6563,2.655448675,29.24769783,-81.98065186,0
82,Etoniah/Cross Florida Greenway Florida Forever BOT Project - Cross Florida Greenway 2001 Additions,http://www.dep.state.fl.us/lands/FFAnnual/Etoniah_Cross_Florida_Greenway.pdf,3112291.75,1401261.125,2.682327747,29.11032295,-82.21076965,0
1012,Etoniah/Cross Florida Greenway Florida Forever BOT Project - Etoniah Creek,http://www.dep.state.fl.us/lands/FFAnnual/Etoniah_Cross_Florida_Greenway.pdf,0,2591702,0.19438374,29.73875618,-81.79301453,0
4283,St. Johns River Blueway Florida Forever BOT Project,http://www.dep.state.fl.us/lands/FFAnnual/St_Johns_River_Blueway.pdf,18668862,5484475,0.230930313,29.89659119,-81.53715515,0
1030,Dade County Archipelago Florida Forever BOT Project - Castellow #31,http://www.dep.state.fl.us/lands/FFAnnual/Dade_County_Archipelago.pdf,0,2527.843506,314.6242065,25.5631485,-80.44665527,0
1634,Escribano Point Florida Forever BOT Project,http://www.dep.state.fl.us/lands/FFAnnual/Escribano_Point.pdf,966123.875,0,9.236139297,30.55734253,-86.97927856,0
4775,Lake Santa Fe Florida Forever BOT Project,http://www.dep.state.fl.us/lands/FFAnnual/Lake_Santa_Fe.pdf,20398676,2051564.875,0.403953671,29.77647018,-82.11317444,0
4852,Shoal River Buffer Florida Forever BOT Project,http://www.dep.state.fl.us/lands/FFAnnual/Shoal_River_Buffer.pdf,5118136,0,1.408480883,30.71385765,-86.52400208,0
4782,St. Joe Timberland Florida Forever BOT Project - Wacissa/Aucilla River Sinks,http://www.dep.state.fl.us/lands/FFAnnual/St_Joe_Timberland.pdf,642238.9375,0,0.755211294,30.16049576,-83.91207123,0
539,Wacissa/Aucilla River Sinks Florida Forever BOT Project,http://www.dep.state.fl.us/lands/FFAnnual/Wacissa_Aucilla_River_Sinks.pdf,13496844,12560.22754,0.316468239,30.22354889,-83.94732666,0
2130,Coupon Bight/Key Deer Florida Forever BOT Project,http://www.dep.state.fl.us/lands/FFAnnual/Coupon_Bight_Key_Deer.pdf,4822752,0,45.20240784,24.67700958,-81.35733795,0
4806,Florida Keys Ecosystem Florida Forever BOT Project - Islamorada/Plantation Key,http://www.dep.state.fl.us/lands/FFAnnual/Florida_Keys_Ecosystem.pdf,584491.875,0,71.85728455,24.97667694,-80.55444336,0
4871,Limestone Ranch Florida Forever BOT Project,http://www.dep.state.fl.us/lands/FFAnnual/Limestone_Ranch.pdf,8730869,10008711,0.232297465,27.36202431,-81.86669922,0
4831,West Aucilla River Buffer Florida Forever BOT Project,http://www.dep.state.fl.us/lands/FFAnnual/West_Aucilla_River_Buffer.pdf,0,93089.54688,0,30.55588341,-83.74276733,0
3420,Florida Keys Ecosystem Florida Forever BOT Project - Tropical Flyways - North Creek Hammocks,http://www.dep.state.fl.us/lands/FFAnnual/Florida_Keys_Ecosystem.pdf,1530171,0,18.95212936,25.16545296,-80.36792755,0
4791,Clear Creek/Whiting Field Florida Forever BOT Project- Phase II,http://www.dep.state.fl.us/lands/FFAnnual/Clear_Creek_Whiting_Field.pdf,0,140299.7188,0.679257452,30.70408821,-87.03108978,0
4805,Clear Creek/Whiting Field Florida Forever BOT Project- Phase I,http://www.dep.state.fl.us/lands/FFAnnual/Clear_Creek_Whiting_Field.pdf,0,179990.3906,0.691090822,30.72670937,-86.99777985,0
1358,Garcon Ecosystem Florida Forever BOT Project,http://www.dep.state.fl.us/lands/FFAnnual/Garcon_Ecosystem.pdf,2948022,104637.0469,1.569669843,30.51714516,-87.06978607,0
4873,Natural Bridge Creek Florida Forever BOT Project,http://www.dep.state.fl.us/lands/FFAnnual/Natural_Bridge_Creek.pdf,0,12339.06934,0.550011039,30.98161507,-86.22672272,0
3770,Corkscrew Regional Ecosystem Watershed Florida Forever BOT Project,http://www.dep.state.fl.us/lands/FFAnnual/Corkscrew_Regional_Ecosystem_Watershed.pdf,129298776,25079900,0.225885659,26.32319069,-81.52778625,0
4876,Longleaf Pine Ecosystem Florida Forever BOT Project - Ellaville Sandhill,http://www.dep.state.fl.us/lands/FFAnnual/Longleaf_Pine_Ecosystem.pdf,0,391.1278992,582.4672852,30.38996887,-83.21140289,0
4875,Florida's First Magnitude Springs Florida Forever BOT Project - Damascus Peanut Tract,http://www.dep.state.fl.us/lands/FFAnnual/Floridas_First_Magnitude_Springs.pdf,0,0,212.3223267,30.35925484,-83.20880127,0
3336,Lake Wales Ridge Ecosystem Florida Forever BOT Project - Royce Ranch Addition,http://www.dep.state.fl.us/lands/FFAnnual/Lake_Wales_Ridge_Ecosystem.pdf,61357.63672,462679.9063,37.1419487,27.38591576,-81.32781219,0
4799,Caber Coastal Connector Florida Forever BOT Project,http://www.dep.state.fl.us/lands/FFAnnual/Caber_Coastal_Connector.pdf,15514759,0,1.095730782,29.17865562,-82.99370575,0
2804,Volusia Conservation Corridor Florida Forever BOT Project,http://www.dep.state.fl.us/lands/FFAnnual/Volusia_Conservation_Corridor.pdf,33279636,8437041,0.12117476,29.06914139,-81.16909027,0
1925,Spruce Creek Florida Forever BOT Project,http://www.dep.state.fl.us/lands/FFAnnual/Spruce_Creek.pdf,488892.4375,0,1.298475146,29.06279564,-80.99316406,0
1560,Pumpkin Hill Creek Florida Forever BOT Project,http://www.dep.state.fl.us/lands/FFAnnual/Pumpkin_Hill_Creek.pdf,20593312,346929.4375,0.511030912,30.50847816,-81.57831573,0
3295,Florida Springs Coastal Greenway Florida Forever BOT Project - Crystal River,http://www.dep.state.fl.us/lands/FFAnnual/Florida_Springs_Coastal_Greenway.pdf,42202608,15507.42285,1.303237081,28.9187851,-82.67782593,0
2809,Florida Springs Coastal Greenway Florida Forever BOT Project - St. Martins River,http://www.dep.state.fl.us/lands/FFAnnual/Florida_Springs_Coastal_Greenway.pdf,48255232,0,0.310847133,28.80952072,-82.68863678,0
926,Florida Springs Coastal Greenway Florida Forever BOT Project - Homosassa Reserve/Walker Property,http://www.dep.state.fl.us/lands/FFAnnual/Florida_Springs_Coastal_Greenway.pdf,4487740.5,24547.79492,1.559804916,28.76257706,-82.59516907,0
4880,Florida's First Magnitude Springs Florida Forever BOT Project - Brunson Landing Tract,http://www.dep.state.fl.us/lands/FFAnnual/Floridas_First_Magnitude_Springs.pdf,0,273.9259338,1143.151611,30.61021423,-85.78012848,0
4877,Eastern Scarp Ranchlands Florida Forever BOT Project,http://www.dep.state.fl.us/lands/FFAnnual/Eastern_Scarp_Ranchlands.pdf,8613638,8270920,0.669593394,27.5325222,-81.23867035,0
1303,Charlotte Harbor Flatwoods Florida Forever BOT Project,http://www.dep.state.fl.us/lands/FFAnnual/Charlotte_Harbor_Flatwoods.pdf,0,62536.04688,0.885750234,26.77765083,-81.9967041,0
2651,Apalachicola River Florida Forever BOT Project,http://www.dep.state.fl.us/lands/FFAnnual/Apalachicola_River.pdf,30152510,800146.625,4.453140259,30.56031036,-84.91701508,0
4568,Wakulla Springs Protection Zone Florida Forever BOT Project,http://www.dep.state.fl.us/lands/FFAnnual/Wakulla_Springs_Protection_Zone.pdf,1452596.5,1368605.375,1.883312106,30.28138542,-84.3036499,0
4858,Wolfe Creek Forest Florida Forever BOT Project,http://www.dep.state.fl.us/lands/FFAnnual/Wolfe_Creek_Forest.pdf,255.8187561,55616.01563,0.414384127,30.7724781,-86.97547913,0
4881,Coastal Headwaters Longleaf Forest Florida Forever BOT Project,http://www.dep.state.fl.us/lands/FFAnnual/Coastal_Headwaters_Longleaf_Forest.pdf,98912448,1035050.25,0.099402457,30.82686424,-87.2980957,0
3633,Bombing Range Ridge Florida Forever BOT Project,http://www.dep.state.fl.us/lands/FFAnnual/Bombing_Range_Ridge.pdf,72791368,21508822,0.387706041,27.75289917,-81.26521301,0
1904,Lake Wales Ridge Ecosystem Florida Forever BOT Project - Carter Creek,http://www.dep.state.fl.us/lands/FFAnnual/Lake_Wales_Ridge_Ecosystem.pdf,8019.20752,241417,10.38611698,27.52054787,-81.40672302,0
4882,Arbuckle Creek Watershed Florida Forever BOT Project,http://www.dep.state.fl.us/lands/FFAnnual/Arbuckle_Creek_Watershed.pdf,0,30761868,0.577377081,27.55129623,-81.36421204,0
2370,Big Bend Swamp/Holopaw Ranch Florida Forever BOT Project,http://www.dep.state.fl.us/lands/FFAnnual/Big_Bend_Swamp_Holopaw_Ranch.pdf,93272.19531,99125048,0.04543405,28.10581779,-81.15234375,0
4884,Conlin Lake X Florida Forever BOT Project,http://www.dep.state.fl.us/lands/FFAnnual/Conlin_Lake_X.pdf,0,5938468.5,0.190608501,28.22946739,-81.10314941,0
4883,Florida's First Magnitude Springs Florida Forever BOT Project - Blue Springs Park,http://www.dep.state.fl.us/lands/FFAnnual/Floridas_First_Magnitude_Springs.pdf,0,1278.270508,4.268688202,29.82759285,-82.68132019,0
3028,Fisheating Creek Ecosystem Florida Forever BOT Project,http://www.dep.state.fl.us/lands/FFAnnual/Fisheating_Creek_Ecosystem.pdf,192255984,192608144,0.130203068,26.98104858,-81.35118103,0
4716,Florida's First Magnitude Springs Florida Forever BOT Project - Silver Springs,http://www.dep.state.fl.us/lands/FFAnnual/Floridas_First_Magnitude_Springs.pdf,0,252811.3438,5.923267841,29.23493385,-82.0690918,0
4861,Lower Suwannee River and Gulf Watershed Florida Forever BOT Project,http://www.dep.state.fl.us/lands/FFAnnual/Lower_Suwannee_River_and_Gulf_Watershed.pdf,65460504,28718.01367,0.054932967,29.48468399,-83.16194153,0
4836,Myakka Ranchlands Florida Forever BOT Project,http://www.dep.state.fl.us/lands/FFAnnual/Myakka_Ranchlands.pdf,38861176,31405506,0.162804842,27.23567581,-82.20140076,0
4886,Charlotte Harbor Estuary Florida Forever BOT Project - Lemon Bay Midden,http://www.dep.state.fl.us/lands/FFAnnual/Charlotte_Harbor_Estuary.pdf,4.193930626,0,52.01222992,26.89684105,-82.32199097,0
4874,Pringle Creek Forest Florida Forever BOT Project,http://www.dep.state.fl.us/lands/FFAnnual/Pringle_Creek_Forest.pdf,32638704,0,0.087775029,29.57704544,-81.30239868,0
4885,Matanzas to Ocala Conservation Corridor Florida Forever BOT Project,http://www.dep.state.fl.us/lands/FFAnnual/Matanzas_to_Ocala_Conservation_Corridor.pdf,117719560,2141113.5,0.07458096,29.59903908,-81.40386963,0
4872,Blue Head Ranch Florida Forever BOT Project,http://www.dep.state.fl.us/lands/FFAnnual/Blue_Head_Ranch.pdf,42547792,128663392,0.183756366,27.14762115,-81.49212646,0
4118,Kissimmee-St. Johns River Connector Florida Forever BOT Project,http://www.dep.state.fl.us/lands/FFAnnual/Kissimmee_St_Johns_River_Connector.pdf,65801112,91986840,0.122514226,27.58665848,-80.87524414,0
4083,Annutteliga Hammock Florida Forever BOT Project,http://www.dep.state.fl.us/lands/FFAnnual/Annutteliga_Hammock.pdf,33592528,2411236.75,1.046069622,28.63578796,-82.4681015,0
1787,Wekiva-Ocala Greenway Florida Forever BOT Project - Wekiva-Ocala Connector East,http://www.dep.state.fl.us/lands/FFAnnual/Wekiva_Ocala_Greenway.pdf,0,2862813.75,1.231938124,28.98617554,-81.38311768,0
